[
  {"name": "AL", "fullName": "Alabama", "longitude": -86.791130, "latitude": 32.806671},
  {"name": "AK", "fullName": "Alaska", "longitude": -152.404419,"latitude": 61.370716},
  {"name": "AZ", "fullName": "Arizona", "longitude": -111.431221, "latitude":33.729759},
  {"name": "AS", "fullName": "American Samoa", "longitude": -170.6950, "latitude": -14.3064},
  {"name": "AR", "fullName": "Arkansas", "longitude": -92.373123, "latitude": 34.969704},
  {"name": "CA", "fullName": "California", "longitude": -119.681564, "latitude": 36.116203},
  {"name": "CO", "fullName": "Colorado", "longitude": -105.311104, "latitude": 39.059811},
  {"name": "CT", "fullName": "Conecticut", "longitude": -72.755371, "latitude": 41.597782},
  {"name": "DE", "fullName": "Dilaware", "longitude": -75.507141, "latitude": 39.318523},
  {"name": "DC", "fullName": "District of Columbia", "longitude": -77.026817, "latitude": 38.897438},
  {"name": "FL", "fullName": "Florida", "longitude": -81.686783, "latitude": 27.766279},
  {"name": "GA", "fullName": "Georgia", "longitude": -83.643074, "latitude": 33.040619},
  {"name": "HI", "fullName": "Hawaii", "longitude": -157.498337, "latitude": 21.094318},
  {"name": "IA", "fullName": "Iowa", "longitude": -93.210526, "latitude": 42.011539},
  {"name": "ID", "fullName": "Idaho", "longitude": -116.999939, "latitude": 46.731705},
  {"name": "IL", "fullName": "Illinois", "longitude": -87.623177, "latitude": 41.881832},
  {"name": "IN", "fullName": "Indiana", "longitude": -86.258278, "latitude": 39.849426},
  {"name": "KS", "fullName": "Kansas", "longitude": -96.726486, "latitude": 38.526600},
  {"name": "KY", "fullName": "Kentucky", "longitude": -84.670067, "latitude": 37.668140},
  {"name": "LA", "fullName": "Louisiana", "longitude": -91.867805, "latitude": 31.169546},
  {"name": "ME", "fullName": "Maine", "longitude": -69.381927, "latitude": 44.693947},
  {"name": "MD", "fullName": "Maryland", "longitude": -76.802101, "latitude": 39.063946},
  {"name": "MA", "fullName": "Massachusetts", "longitude": -71.530106, "latitude": 42.230171},
  {"name": "MI", "fullName": "Michigan", "longitude": -84.536095, "latitude": 43.326618},
  {"name": "MN", "fullName": "Minnesota", "longitude": -93.900192, "latitude": 45.694454},
  {"name": "MS", "fullName": "Mississippi", "longitude": -89.678696, "latitude": 32.741646},
  {"name": "MO", "fullName": "Missouri", "longitude": -92.288368, "latitude": 38.456085},
  {"name": "MT", "fullName": "Montana", "longitude": -110.454353, "latitude": 46.921925},
  {"name": "NE", "fullName": "Nebraska", "longitude": -98.268082, "latitude": 41.125370},
  {"name": "NV", "fullName": "Nevada", "longitude": -117.055374, "latitude": 38.313515},
  {"name": "NH", "fullName": "New Hampshire", "longitude": -71.563896, "latitude": 43.452492},
  {"name": "NJ", "fullName": "New Jersey", "longitude": -74.521011, "latitude": 40.298904},
  {"name": "NM", "fullName": "New Mexico", "longitude": -106.248482, "latitude": 34.840515},
  {"name": "NY", "fullName": "New York", "longitude": -74.948051, "latitude": 42.165726},
  {"name": "NC", "fullName": "North Carolina", "longitude": -79.806419, "latitude": 35.630066},
  {"name": "ND", "fullName": "North Dakota", "longitude": -99.784012, "latitude": 47.528912},
  {"name": "OH", "fullName": "Ohio", "longitude": -82.764915, "latitude": 40.388783},
  {"name": "OK", "fullName": "Oklahoma", "longitude": -96.928917, "latitude": 35.565342},
  {"name": "OR", "fullName": "Oregon", "longitude": -122.070938, "latitude": 44.572021},
  {"name": "PA", "fullName": "Pennsylvania", "longitude": -77.209755, "latitude": 40.590752},
  {"name": "RI", "fullName": "Rhode Island", "longitude": -71.511780, "latitude": 41.680893},
  {"name": "SC", "fullName": "South Carolina", "longitude": -80.945007, "latitude": 33.856892},
  {"name": "SD", "fullName": "South Dakota", "longitude": -99.438828, "latitude": 44.299782},
  {"name": "TN", "fullName": "Tennessee", "longitude": -86.692345, "latitude": 35.747845},
  {"name": "TX", "fullName": "Texas", "longitude": -97.563461, "latitude": 31.054487},
  {"name": "UT", "fullName": "Utah", "longitude": -111.862434, "latitude": 40.150032},
  {"name": "VT", "fullName": "Vermont", "longitude": -72.710686, "latitude": 44.045876},
  {"name": "VA", "fullName": "Virginia", "longitude": -78.169968, "latitude": 37.769337},
  {"name": "WA", "fullName": "Washington", "longitude": -121.490494, "latitude": 47.400902},
  {"name": "WV", "fullName": "West Virginia", "longitude": -80.954453, "latitude": 38.491226},
  {"name": "WI", "fullName": "Wisconsin", "longitude": -89.616508, "latitude": 44.268543},
  {"name": "WY", "fullName": "Wyoming", "longitude": -107.302490, "latitude": 42.755966},
  {"name": "GU", "fullName": "Guam", "longitude": 144.793732, "latitude": 13.444304},
  {"name": "MP", "fullName": "Northern Mariana Islands", "longitude": 145.5563, "latitude": 14.8512},
  {"name": "PR", "fullName": "Puerto Rico", "longitude": -66.664513, "latitude": 18.200178},
  {"name": "VI", "fullName": "United States Virgin Islands", "longitude": -64.9167, "latitude": 18.3333},
  {"name": "FM", "fullName": "Micronesia", "longitude": 158.2151, "latitude": 6.8875},
  {"name": "MH", "fullName": "Marshall Islands", "longitude": 171.2667, "latitude": 7.0667},
  {"name": "PW", "fullName": "Palau", "longitude":  134.4667, "latitude": 7.3500}
]


